,City,Cloudiness,Country,Date,Humidity,Lat,Lng,Max Temp,Wind Speed
0,severo-kurilsk,92.0,RU,1536380751.0,97.0,50.68,156.12,284.47,4.21
1,vaini,68.0,IN,1536380743.0,100.0,15.34,74.49,294.57,2.21
2,cervo,0.0,BR,1536380990.0,78.0,-22.19,-46.24,283.37,1.06
3,busselton,92.0,AU,1536380724.0,95.0,-33.64,115.35,290.07,9.31
4,aripuana,20.0,BR,1536380762.0,80.0,-9.17,-60.63,300.47,0.96
5,nikolskoye,90.0,RU,1536377400.0,100.0,59.7,30.79,287.15,1.0
6,torbay,5.0,CA,1536379200.0,81.0,47.66,-52.73,285.15,4.6
7,paka,20.0,HR,1536379200.0,93.0,45.29,18.06,290.15,3.1
8,carnarvon,92.0,ZA,1536380778.0,98.0,-30.97,22.13,273.77,5.16
9,khatanga,68.0,RU,1536380808.0,76.0,71.98,102.47,277.92,4.31
11,aykhal,36.0,RU,1536380834.0,74.0,65.95,111.51,274.37,1.86
12,huitziltepec,24.0,MX,1536381128.0,92.0,17.76,-99.48,290.967,0.91
14,dunedin,0.0,NZ,1536380518.0,73.0,-45.87,170.5,282.72,3.16
15,bam,0.0,IR,1536380856.0,24.0,29.11,58.36,289.97,1.71
16,elda,20.0,ES,1536379200.0,64.0,38.48,-0.8,296.15,3.1
17,mar del plata,0.0,AR,1536380748.0,62.0,-46.43,-67.52,280.42,5.46
18,bethel,1.0,US,1536378780.0,51.0,60.79,-161.76,288.15,5.7
19,ushuaia,20.0,AR,1536375600.0,74.0,-54.81,-68.31,276.15,3.1
20,pochutla,0.0,MX,1536380866.0,100.0,15.74,-96.47,302.12,1.51
21,barrow,0.0,AR,1536380775.0,81.0,-38.31,-60.23,278.47,2.56
22,hobart,40.0,AU,1536379200.0,38.0,-42.88,147.33,288.15,3.6
24,saint george,20.0,GR,1536378600.0,64.0,39.45,22.34,294.15,3.1
25,rikitea,92.0,PF,1536380750.0,100.0,-23.12,-134.97,295.12,13.01
27,albany,75.0,US,1536380040.0,96.0,42.65,-73.75,291.45,2.11
28,bhimunipatnam,0.0,IN,1536381132.0,57.0,17.88,83.43,306.467,2.11
29,labuhan,32.0,ID,1536380927.0,65.0,-2.54,115.51,303.12,2.26
30,mataura,0.0,NZ,1536380739.0,74.0,-46.19,168.86,286.62,2.11
31,tuktoyaktuk,90.0,CA,1536379200.0,86.0,69.44,-133.03,274.15,3.6
32,muros,0.0,ES,1536379200.0,93.0,42.77,-9.06,288.15,3.1
33,punta arenas,20.0,CL,1536375600.0,100.0,-53.16,-70.91,275.15,1.5
34,bluff,0.0,AU,1536380781.0,41.0,-23.58,149.07,302.32,3.81
35,manavalakurichi,40.0,IN,1536379200.0,66.0,8.13,77.3,303.15,5.1
36,te anau,0.0,NZ,1536380804.0,57.0,-45.41,167.72,284.77,1.41
37,yellowknife,90.0,CA,1536379200.0,66.0,62.45,-114.38,285.15,3.6
38,cockburn town,92.0,TC,1536381134.0,100.0,21.46,-71.14,301.017,5.66
39,kamenka,0.0,RU,1536380783.0,76.0,53.19,44.05,280.92,1.41
40,port alfred,0.0,ZA,1536380769.0,100.0,-33.59,26.89,284.52,7.56
41,luderitz,0.0,NA,1536380756.0,82.0,-26.65,15.16,283.12,7.56
42,bilibino,0.0,RU,1536381135.0,47.0,68.06,166.44,289.817,1.96
43,tarakan,32.0,ID,1536381135.0,76.0,3.3,117.63,304.367,0.51
44,new norfolk,40.0,AU,1536379200.0,38.0,-42.78,147.06,288.15,3.6
45,leshukonskoye,88.0,RU,1536381136.0,85.0,64.9,45.76,282.717,2.36
46,castro,80.0,CL,1536380776.0,97.0,-42.48,-73.76,279.57,1.31
47,bredasdorp,88.0,ZA,1536379200.0,81.0,-34.53,20.04,283.15,6.2
48,nur,0.0,PL,1536381136.0,84.0,52.67,22.32,290.117,1.56
50,spokane,1.0,US,1536379080.0,43.0,47.66,-117.42,295.35,1.5
51,tasiilaq,92.0,GL,1536378600.0,75.0,65.61,-37.64,281.15,20.1
52,hobyo,8.0,SO,1536380812.0,91.0,5.35,48.53,296.42,7.26
53,kodiak,90.0,US,1536378780.0,96.0,39.95,-94.76,291.45,4.1
54,nabire,44.0,ID,1536380903.0,80.0,-3.36,135.5,299.57,1.16
55,victoria,75.0,BN,1536379200.0,79.0,5.28,115.24,304.15,1.5
57,dwarka,75.0,IN,1536377400.0,83.0,28.58,77.04,302.15,3.1
59,jieshi,88.0,CN,1536381139.0,98.0,22.82,115.83,300.867,2.71
62,presidente venceslau,0.0,BR,1536379200.0,59.0,-21.88,-51.85,289.15,1.0
63,huarmey,0.0,PE,1536381140.0,83.0,-10.07,-78.15,283.867,1.46
64,sao jose da coroa grande,92.0,BR,1536380842.0,81.0,-8.9,-35.15,296.57,4.91
65,lavrentiya,0.0,RU,1536380756.0,92.0,65.58,-170.99,282.52,4.26
67,puerto ayora,32.0,EC,1536380754.0,100.0,-0.74,-90.35,294.92,5.56
68,hermanus,92.0,ZA,1536380774.0,89.0,-34.42,19.24,282.32,2.76
69,esperance,20.0,TT,1536379200.0,100.0,10.24,-61.45,297.15,2.36
70,upernavik,0.0,GL,1536380753.0,100.0,72.79,-56.15,276.32,6.51
71,santa rosalia,20.0,IT,1536378900.0,78.0,38.07,13.27,298.15,4.1
72,butaritari,48.0,KI,1536380689.0,100.0,3.07,172.79,303.12,2.61
73,ereymentau,48.0,KZ,1536381142.0,87.0,51.62,73.1,285.967,4.56
74,bambous virieux,75.0,MU,1536379200.0,69.0,-20.34,57.76,296.15,6.2
75,front royal,40.0,US,1536378960.0,100.0,38.92,-78.19,295.95,2.1
77,shingu,75.0,JP,1536375600.0,83.0,33.72,135.99,299.15,3.6
79,kapaa,75.0,US,1536378960.0,84.0,22.08,-159.32,302.05,6.7
80,villamontes,0.0,BO,1536381144.0,55.0,-21.26,-63.47,286.017,2.11
81,avarua,20.0,CK,1536379200.0,69.0,-21.21,-159.78,298.15,2.1
82,whitianga,12.0,NZ,1536380878.0,94.0,-36.83,175.7,288.77,3.11
83,cibitoke,36.0,BI,1536381145.0,74.0,-2.89,29.12,292.417,0.71
85,echirolles,0.0,FR,1536379200.0,93.0,45.14,5.73,283.15,0.5
86,mahebourg,75.0,MU,1536379200.0,69.0,-20.41,57.7,296.15,6.2
88,east london,0.0,ZA,1536379200.0,46.0,-33.02,27.91,285.15,7.7
90,vardo,75.0,US,1536380100.0,94.0,39.62,-77.74,295.95,0.81
91,rincon,1.0,US,1536380100.0,97.0,32.3,-81.24,300.15,1.61
92,marsh harbour,56.0,BS,1536381027.0,100.0,26.54,-77.06,300.567,4.26
93,kruisfontein,92.0,ZA,1536380826.0,100.0,-34.0,24.73,286.62,6.91
94,hithadhoo,80.0,MV,1536380766.0,100.0,-0.6,73.08,301.12,3.56
95,emerald,0.0,AU,1536381148.0,25.0,-23.53,148.16,304.417,4.36
96,cherskiy,20.0,RU,1536380807.0,47.0,68.75,161.3,290.07,4.21
97,arraial do cabo,0.0,BR,1536380745.0,100.0,-22.97,-42.02,292.02,4.81
98,cape town,75.0,ZA,1536379200.0,93.0,-33.93,18.42,281.15,1.5
99,terrell,75.0,US,1536378900.0,93.0,32.74,-96.28,298.15,3.6
100,erzin,40.0,TR,1536378600.0,83.0,36.95,36.2,294.15,4.1
101,cidreira,0.0,BR,1536380774.0,84.0,-30.17,-50.22,285.82,2.31
102,komsomolskiy,92.0,RU,1536380791.0,100.0,67.55,63.78,278.27,6.61
103,isangel,0.0,VU,1536381149.0,100.0,-19.55,169.27,294.867,7.01
104,jamestown,0.0,AU,1536380756.0,48.0,-33.21,138.6,287.97,6.46
105,iqaluit,75.0,CA,1536379200.0,86.0,63.75,-68.52,277.15,1.5
106,ancud,92.0,CL,1536380852.0,96.0,-41.87,-73.83,279.07,1.16
108,belyy yar,0.0,RU,1536379200.0,82.0,53.6,91.39,287.15,1.0
109,mpika,8.0,ZM,1536381151.0,56.0,-11.84,31.4,293.967,3.36
110,grindavik,75.0,IS,1536377400.0,87.0,63.84,-22.43,283.15,12.9
112,la palma,80.0,CO,1536381152.0,100.0,5.36,-74.39,291.767,0.01
113,talnakh,44.0,RU,1536380782.0,92.0,69.49,88.39,276.37,2.06
114,nena,90.0,US,1536378900.0,100.0,32.33,-96.86,298.15,2.1
115,kununurra,0.0,AU,1536379200.0,13.0,-15.77,128.74,309.15,3.6
116,olinda,20.0,EC,1536379200.0,78.0,-2.03,-79.75,295.15,4.6
117,lorengau,92.0,PG,1536380862.0,100.0,-2.02,147.27,298.22,4.16
118,hofn,92.0,IS,1536380767.0,100.0,64.25,-15.21,282.12,6.51
119,daokou,12.0,CN,1536381155.0,63.0,35.61,105.12,290.467,4.61
120,atuona,68.0,PF,1536380747.0,100.0,-9.8,-139.03,299.12,7.06
121,caluquembe,0.0,AO,1536381157.0,82.0,-13.78,14.68,285.867,1.16
122,tomohon,40.0,ID,1536379200.0,49.0,1.33,124.84,307.15,1.5
124,yaan,92.0,NG,1536381157.0,99.0,7.38,8.57,294.817,1.96
125,padang,44.0,ID,1536381158.0,100.0,-0.92,100.36,301.367,2.31
126,hilo,1.0,US,1536379020.0,76.0,19.71,-155.08,300.35,2.6
127,shenjiamen,92.0,CN,1536381158.0,100.0,29.96,122.3,298.467,6.56
128,nongstoin,48.0,IN,1536381158.0,99.0,25.52,91.27,299.567,1.21
129,narsaq,92.0,GL,1536378600.0,86.0,60.91,-46.05,278.15,0.76
130,kysyl-syr,92.0,RU,1536381159.0,79.0,63.9,122.77,276.867,3.11
131,boralday,0.0,KZ,1536379200.0,23.0,43.36,76.86,297.15,2.0
132,kloulklubed,90.0,PW,1536378600.0,88.0,7.04,134.26,299.15,4.6
133,ayagoz,0.0,KZ,1536381160.0,43.0,47.96,80.43,292.517,1.46
134,ust-ilimsk,68.0,RU,1536381090.0,48.0,57.96,102.73,284.117,3.01
135,rio grande,0.0,BR,1536381160.0,92.0,-32.03,-52.1,285.967,1.46
136,viedma,0.0,AR,1536381161.0,79.0,-40.81,-62.99,274.867,1.76
137,ribeira grande,88.0,PT,1536380785.0,99.0,38.52,-28.7,296.62,2.01
138,souillac,0.0,FR,1536379200.0,93.0,45.6,-0.6,286.15,3.1
139,port elizabeth,75.0,US,1536379260.0,93.0,39.31,-74.98,297.55,3.1
140,sfantu gheorghe,0.0,RO,1536379200.0,87.0,44.65,26.83,290.15,0.5
141,chuy,0.0,UY,1536380582.0,92.0,-33.69,-53.46,284.87,4.46
142,san cristobal,40.0,EC,1536379200.0,81.0,-0.39,-78.55,282.15,1.0
143,geraldton,5.0,CA,1536379200.0,72.0,49.72,-86.95,275.15,1.81
144,acapulco,40.0,MX,1536378660.0,74.0,16.86,-99.88,302.15,4.1
146,vao,88.0,EE,1536380862.0,81.0,59.1,26.19,288.87,1.76
147,susuman,92.0,RU,1536381163.0,81.0,62.78,148.15,283.717,1.76
148,garoua,75.0,CM,1536375600.0,94.0,9.31,13.39,296.15,3.1
149,serenje,8.0,ZM,1536381164.0,50.0,-13.23,30.22,294.217,4.01
150,mahibadhoo,92.0,MV,1536380845.0,99.0,3.78,72.97,302.02,6.01
151,norman wells,75.0,CA,1536379200.0,86.0,65.28,-126.83,276.15,4.1
152,chokurdakh,48.0,RU,1536380770.0,64.0,70.62,147.9,289.62,5.21
153,sterling,75.0,US,1536379800.0,100.0,39.0,-77.4,297.05,2.1
154,keetmanshoop,0.0,NA,1536381166.0,86.0,-26.57,18.15,272.867,1.61
155,khasan,0.0,RU,1536381166.0,84.0,42.43,130.64,292.867,5.36
156,fulton,1.0,US,1536381300.0,87.0,43.32,-76.42,288.75,1.51
157,atar,64.0,MR,1536380820.0,40.0,20.52,-13.05,299.67,1.31
158,katsuura,90.0,JP,1536379200.0,88.0,33.93,134.5,294.15,7.2
159,kaitangata,0.0,NZ,1536380807.0,75.0,-46.28,169.85,284.57,2.76
160,anadyr,0.0,RU,1536379200.0,71.0,64.73,177.51,287.15,2.0
161,svetlogorsk,0.0,RU,1536379200.0,66.0,53.14,59.15,285.15,1.0
162,caranavi,0.0,BO,1536381168.0,74.0,-15.83,-67.57,289.717,0.91
164,pevek,0.0,RU,1536380773.0,70.0,69.7,170.27,286.37,3.46
165,vorotynets,0.0,RU,1536381168.0,57.0,56.06,45.86,293.017,1.96
166,provideniya,0.0,RU,1536380850.0,98.0,64.42,-173.23,282.67,3.86
167,sao joao da barra,0.0,BR,1536380763.0,100.0,-21.64,-41.05,294.52,3.36
168,nanortalik,92.0,GL,1536380801.0,99.0,60.14,-45.24,277.57,1.96
169,airai,0.0,TL,1536380778.0,36.0,-8.93,125.41,303.42,0.96
170,quatre cocos,75.0,MU,1536379200.0,69.0,-20.21,57.76,296.15,6.2
171,porto novo,0.0,BR,1536379200.0,87.0,-23.68,-45.44,287.15,1.5
172,port hawkesbury,1.0,CA,1536379200.0,100.0,45.62,-61.36,283.15,3.46
174,hasaki,40.0,JP,1536377580.0,59.0,35.73,140.83,305.15,8.2
175,hambantota,0.0,LK,1536380871.0,88.0,6.12,81.12,301.12,6.76
176,klaksvik,20.0,FO,1536378600.0,93.0,62.23,-6.59,284.15,4.6
177,mecca,8.0,SA,1536380824.0,84.0,21.43,39.83,296.37,0.86
178,ostrovnoy,88.0,RU,1536380772.0,93.0,68.05,39.51,278.72,4.11
179,puri,20.0,ID,1536375600.0,52.0,-7.54,112.45,305.15,1.5
180,batagay-alyta,12.0,RU,1536381172.0,84.0,67.8,130.41,274.867,1.86
183,haimen,20.0,CN,1536381173.0,66.0,31.87,121.18,301.367,6.01
185,bukachacha,0.0,RU,1536380801.0,35.0,52.99,116.91,280.47,1.61
186,samarkand,0.0,UZ,1536377400.0,32.0,39.65,66.98,294.15,4.1
187,havre-saint-pierre,20.0,CA,1536379200.0,93.0,50.23,-63.6,279.15,2.6
188,guzelyurt,40.0,TR,1536378600.0,66.0,38.28,34.37,286.15,2.1
189,casper,1.0,US,1536378780.0,35.0,42.87,-106.31,290.95,2.6
190,cabo san lucas,40.0,MX,1536378000.0,69.0,22.89,-109.91,301.15,6.2
191,manzhouli,56.0,CN,1536381174.0,28.0,49.6,117.43,285.917,3.86
193,havre,1.0,US,1536378780.0,36.0,48.55,-109.68,295.35,3.6
194,san quintin,90.0,PH,1536379200.0,83.0,17.54,120.52,301.15,2.1
195,bambanglipuro,80.0,ID,1536380851.0,69.0,-7.95,110.28,299.77,2.96
196,anahuac,1.0,US,1536380100.0,70.0,29.77,-94.68,302.15,4.1
197,tarrafal,40.0,CV,1536379200.0,83.0,15.28,-23.77,299.15,5.1
198,bosansko grahovo,76.0,BA,1536381177.0,92.0,44.18,16.37,286.717,1.11
199,balabac,12.0,PH,1536381177.0,100.0,7.99,117.06,302.567,3.81
201,vytegra,92.0,RU,1536381177.0,100.0,61.01,36.45,287.467,2.06
202,qaanaaq,0.0,GL,1536380772.0,100.0,77.48,-69.36,270.12,1.96
203,sisimiut,32.0,GL,1536381178.0,100.0,66.94,-53.67,271.117,0.76
204,sola,75.0,NO,1536378600.0,100.0,58.89,5.65,287.15,2.1
206,port blair,48.0,IN,1536380755.0,97.0,11.67,92.75,301.12,3.61
207,constitucion,90.0,MX,1536374760.0,82.0,23.99,-104.67,291.15,1.31
208,novopskov,48.0,UA,1536381179.0,42.0,49.54,39.1,292.717,4.26
209,sioux lookout,5.0,CA,1536379200.0,52.0,50.1,-91.92,283.15,2.6
210,oranjestad,20.0,AW,1536379200.0,83.0,12.52,-70.03,301.15,6.2
211,edd,92.0,ER,1536381180.0,32.0,13.93,41.69,305.267,0.86
212,bull savanna,76.0,JM,1536381180.0,84.0,17.89,-77.59,297.117,1.96
213,ilam,0.0,IR,1536379200.0,30.0,33.64,46.42,294.15,2.1
215,yar-sale,88.0,RU,1536380812.0,100.0,66.83,70.83,280.62,5.81
216,igarka,0.0,RU,1536381181.0,64.0,67.47,86.57,282.367,5.11
217,harindanga,40.0,IN,1536379200.0,79.0,22.04,88.32,304.15,4.6
218,paamiut,76.0,GL,1536380833.0,97.0,61.99,-49.67,277.72,3.76
219,caraubas,0.0,BR,1536381182.0,55.0,-5.79,-37.56,296.067,5.06
220,madimba,75.0,CM,1536379200.0,100.0,4.42,9.93,297.15,2.1
221,kindu,92.0,CD,1536381183.0,100.0,-2.95,25.92,293.317,0.86
222,yenagoa,92.0,NG,1536380791.0,97.0,4.92,6.26,296.12,1.66
223,ponta do sol,0.0,BR,1536380839.0,78.0,-20.63,-46.0,286.22,1.51
224,mayo,40.0,CA,1536379200.0,53.0,63.59,-135.9,284.15,4.6
225,pacific grove,1.0,US,1536378900.0,86.0,36.62,-121.92,290.15,1.36
227,le port,24.0,FR,1536381185.0,95.0,42.87,1.37,280.467,0.86
228,yerbogachen,64.0,RU,1536381185.0,47.0,61.28,108.01,282.217,1.71
229,ust-kuyga,76.0,RU,1536381185.0,100.0,70.0,135.55,279.767,2.06
230,puerto carreno,20.0,CO,1536381186.0,95.0,6.19,-67.49,292.467,1.41
233,saint-joseph,0.0,FR,1536379200.0,88.0,43.56,6.97,293.15,2.1
234,fortuna,20.0,ES,1536379200.0,64.0,38.18,-1.13,298.15,3.1
235,coihaique,40.0,CL,1536379200.0,80.0,-45.58,-72.07,277.15,1.5
236,mangai,88.0,CD,1536381187.0,98.0,-4.07,19.59,294.367,1.41
237,kudahuvadhoo,56.0,MV,1536380815.0,100.0,2.67,72.89,298.72,4.11
238,leh,36.0,IN,1536381187.0,65.0,34.16,77.58,281.717,0.76
239,gemena,12.0,CD,1536381188.0,91.0,3.25,19.78,295.567,1.31
240,tiksi,92.0,RU,1536380809.0,100.0,71.64,128.87,276.32,7.16
242,laguna,44.0,MX,1536380755.0,75.0,27.52,-110.01,300.97,2.31
243,kavaratti,68.0,IN,1536380898.0,98.0,10.57,72.64,300.97,5.81
245,morondava,0.0,MG,1536380916.0,100.0,-20.3,44.28,294.17,1.06
247,westport,92.0,IE,1536380926.0,100.0,53.8,-9.52,286.62,4.06
248,qandala,0.0,SO,1536381190.0,63.0,11.47,49.87,302.167,0.76
249,tecoanapa,40.0,MX,1536378660.0,74.0,16.99,-99.26,302.15,4.1
250,saint-philippe,20.0,CA,1536379200.0,67.0,45.36,-73.48,289.15,5.1
251,chengde,8.0,CN,1536381190.0,51.0,40.97,117.93,293.367,1.21
252,kautokeino,80.0,NO,1536381191.0,99.0,69.01,23.04,281.567,1.66
254,mahajanga,20.0,MG,1536379200.0,69.0,-15.72,46.32,296.15,3.1
255,larvik,75.0,NO,1536378600.0,100.0,59.05,10.04,287.15,5.1
256,vostok,92.0,RU,1536380893.0,99.0,46.45,135.83,283.32,1.81
257,amapa,75.0,HN,1536379200.0,83.0,15.09,-87.97,300.15,1.0
258,moses lake,1.0,US,1536378780.0,37.0,47.13,-119.28,297.55,2.6
260,sibolga,64.0,ID,1536381193.0,92.0,1.74,98.78,297.917,0.51
261,clyde river,75.0,CA,1536379200.0,100.0,70.47,-68.59,273.15,2.6
262,shahpur,80.0,IN,1536381194.0,94.0,22.19,77.91,296.317,7.41
264,ewa beach,75.0,US,1536379020.0,64.0,21.32,-158.01,301.45,3.1
265,borogontsy,88.0,RU,1536381194.0,74.0,62.67,131.17,277.367,2.86
266,marsa matruh,0.0,EG,1536375600.0,83.0,31.35,27.25,296.15,2.6
267,belmonte,0.0,PT,1536381195.0,89.0,40.36,-7.35,282.267,1.06
268,tautira,20.0,PF,1536379200.0,69.0,-17.73,-149.15,299.15,6.2
270,nantucket,90.0,US,1536380100.0,93.0,41.28,-70.1,292.55,3.76
271,thinadhoo,88.0,MV,1536381196.0,100.0,0.53,72.93,301.117,5.21
272,goma,88.0,CD,1536380911.0,97.0,-1.67,29.23,287.27,0.51
273,alboraya,20.0,ES,1536379200.0,83.0,39.5,-0.35,294.15,2.6
275,jiayuguan,0.0,CN,1536380829.0,47.0,39.77,98.29,287.87,1.76
276,nichinan,75.0,JP,1536379200.0,83.0,31.65,131.31,297.15,5.7
277,touros,20.0,BR,1536380845.0,86.0,-5.2,-35.46,296.62,7.16
278,esmeraldas,0.0,BR,1536379200.0,63.0,-19.76,-44.31,290.15,4.6
279,salalah,90.0,OM,1536378600.0,94.0,17.01,54.1,297.15,1.0
280,saskylakh,88.0,RU,1536380777.0,81.0,71.97,114.09,276.22,2.41
281,monmouth,40.0,GB,1536379260.0,100.0,51.81,-2.72,287.15,2.1
282,karratha,0.0,AU,1536380882.0,20.0,-20.74,116.85,302.57,3.81
283,beringovskiy,0.0,RU,1536380814.0,83.0,63.05,179.32,287.27,2.31
284,margate,40.0,AU,1536379200.0,38.0,-43.03,147.26,288.15,3.6
285,myitkyina,56.0,MM,1536381200.0,80.0,25.38,97.4,302.967,1.36
286,shizukuishi,75.0,JP,1536379200.0,94.0,39.7,140.98,295.15,2.1
287,jalu,0.0,LY,1536381201.0,38.0,29.03,21.55,299.417,1.86
288,karachi,75.0,PK,1536378780.0,74.0,24.87,67.03,300.15,5.1
289,thompson,20.0,CA,1536379200.0,74.0,55.74,-97.86,276.15,1.0
290,tuatapere,8.0,NZ,1536380798.0,92.0,-46.13,167.69,283.87,2.11
291,bubaque,80.0,GW,1536380836.0,100.0,11.28,-15.83,299.47,10.41
292,yulara,0.0,AU,1536379200.0,12.0,-25.24,130.99,298.15,2.1
293,simao,100.0,CN,1536381202.0,100.0,22.76,100.79,293.017,0.86
294,george town,75.0,MY,1536379200.0,78.0,5.42,100.33,301.15,3.6
295,giyani,56.0,ZA,1536380921.0,82.0,-23.32,30.73,291.17,0.41
296,ust-nera,88.0,RU,1536381203.0,64.0,64.57,143.24,285.117,1.06
297,kidal,0.0,ML,1536381203.0,67.0,18.44,1.41,297.717,5.31
298,tucuman,0.0,PE,1536381203.0,70.0,-17.17,-70.89,280.767,0.31
299,port lincoln,92.0,AU,1536380860.0,77.0,-34.72,135.86,289.42,10.56
300,kaeo,76.0,NZ,1536380862.0,62.0,-35.1,173.78,288.77,6.26
301,ormond beach,20.0,US,1536378780.0,96.0,29.29,-81.06,298.75,3.21
302,todos santos,40.0,MX,1536378300.0,69.0,23.45,-110.23,301.15,4.1
303,hami,92.0,CN,1536381205.0,25.0,42.84,93.51,298.417,1.91
304,kieta,76.0,PG,1536380845.0,97.0,-6.22,155.63,300.47,2.01
305,dharchula,8.0,IN,1536381205.0,79.0,29.85,80.53,290.517,0.71
306,xai-xai,32.0,MZ,1536381205.0,76.0,-25.04,33.64,298.117,8.86
307,whitehorse,90.0,CA,1536379200.0,87.0,60.72,-135.06,282.15,1.0
308,san andres,8.0,PH,1536380747.0,100.0,13.32,122.68,301.07,7.01
309,faya,0.0,SA,1536379200.0,28.0,18.39,42.45,294.15,2.1
310,vila velha,20.0,BR,1536379200.0,74.0,-3.71,-38.6,299.15,5.7
311,nalut,20.0,LY,1536381207.0,54.0,31.86,10.98,298.117,4.91
312,zhuhai,0.0,CN,1536379200.0,42.0,40.71,112.04,291.15,2.0
313,kalispell,1.0,US,1536378900.0,57.0,48.2,-114.32,287.05,2.6
314,safita,40.0,SY,1536379200.0,78.0,34.82,36.12,296.15,2.1
315,dali,100.0,CN,1536381208.0,100.0,25.6,100.24,287.617,1.01
316,rawson,0.0,AR,1536380809.0,48.0,-43.3,-65.11,277.27,2.86
317,goldsboro,1.0,US,1536379500.0,100.0,35.38,-77.99,297.25,2.71
318,goderich,76.0,CA,1536381209.0,79.0,43.74,-81.71,288.217,5.01
319,georgetown,0.0,GY,1536379200.0,100.0,6.8,-58.16,297.15,1.66
320,antofagasta,90.0,CL,1536379200.0,76.0,-23.65,-70.4,286.15,3.1
321,ahipara,8.0,NZ,1536380722.0,79.0,-35.17,173.16,288.07,7.46
323,bathsheba,40.0,BB,1536379200.0,78.0,13.22,-59.52,300.15,4.1
324,tessalit,0.0,ML,1536381210.0,36.0,20.2,1.01,298.817,7.06
326,tanete,0.0,ID,1536381211.0,39.0,-3.94,119.78,305.717,7.81
327,longyearbyen,75.0,NO,1536378600.0,100.0,78.22,15.63,276.15,3.6
328,krasnoborsk,56.0,RU,1536381212.0,91.0,61.56,45.93,287.617,2.11
329,mbanza-ngungu,24.0,CD,1536381212.0,83.0,-5.25,14.87,294.017,2.06
330,cotonou,40.0,BJ,1536379200.0,88.0,6.37,2.43,298.15,3.6
331,mercedes,0.0,UY,1536381213.0,90.0,-33.25,-58.03,288.317,1.96
332,kamaishi,75.0,JP,1536379200.0,94.0,39.28,141.86,295.15,2.1
333,omsukchan,64.0,RU,1536381214.0,56.0,62.53,155.8,286.917,2.06
334,port hardy,90.0,CA,1536379200.0,93.0,50.7,-127.42,286.15,4.1
335,flinders,90.0,AU,1536379200.0,62.0,-34.58,150.85,288.15,4.1
337,beloha,0.0,MG,1536381215.0,43.0,-25.17,45.06,298.117,3.11
338,nome,1.0,US,1536378900.0,88.0,30.04,-94.42,299.45,2.01
339,sechenovo,0.0,RU,1536381216.0,43.0,55.22,45.89,293.267,2.06
340,adrar,0.0,DZ,1536379200.0,23.0,27.87,-0.29,302.15,4.6
341,soyo,20.0,AO,1536381217.0,96.0,-6.13,12.37,293.717,1.21
342,rio brilhante,0.0,BR,1536381217.0,74.0,-21.8,-54.54,286.917,1.31
343,afua,92.0,NG,1536381217.0,99.0,5.27,7.87,294.617,1.71
344,codrington,48.0,AU,1536380761.0,80.0,-28.95,153.24,294.07,3.66
345,vaitape,80.0,PF,1536381218.0,100.0,-16.52,-151.75,298.317,4.41
346,misratah,20.0,LY,1536381218.0,88.0,32.38,15.09,301.067,4.76
347,general pico,8.0,AR,1536380868.0,48.0,-35.66,-63.75,284.57,3.36
348,coquimbo,90.0,CL,1536375600.0,87.0,-29.95,-71.34,285.15,1.0
349,talara,0.0,PE,1536381219.0,94.0,-4.58,-81.27,289.617,2.51
350,imbituba,0.0,BR,1536379200.0,93.0,-28.24,-48.67,289.15,1.5
351,darhan,0.0,MN,1536380827.0,72.0,49.49,105.92,288.72,1.91
352,mirnyy,0.0,RU,1536381220.0,53.0,56.57,36.46,291.617,2.06
353,upata,88.0,VE,1536381220.0,98.0,8.02,-62.41,294.117,1.31
355,broken hill,0.0,AU,1536381221.0,38.0,-31.97,141.45,291.617,4.76
356,kungurtug,64.0,RU,1536381221.0,43.0,50.6,97.53,288.317,1.91
357,mocuba,0.0,MZ,1536381221.0,46.0,-16.84,36.99,299.367,3.41
358,zhangye,0.0,CN,1536381222.0,60.0,38.94,100.46,293.617,1.96
359,zogno,40.0,IT,1536378900.0,93.0,45.79,9.66,291.15,3.1
360,baykit,56.0,RU,1536381222.0,73.0,61.68,96.39,283.867,4.36
361,sao filipe,48.0,CV,1536380861.0,100.0,14.9,-24.5,298.62,3.11
362,mount isa,0.0,AU,1536379200.0,19.0,-20.73,139.49,304.15,4.6
363,abu dhabi,20.0,AE,1536379200.0,79.0,24.47,54.37,306.15,1.5
364,lebu,40.0,ET,1536375600.0,93.0,8.96,38.73,285.15,1.0
365,juan lacaze,24.0,UY,1536381223.0,46.0,-34.43,-57.44,287.617,4.76
366,lasa,20.0,CY,1536379200.0,78.0,34.92,32.53,297.15,4.6
367,waverly,1.0,US,1536379080.0,87.0,37.04,-77.1,301.15,1.96
368,pangoa,8.0,PE,1536381224.0,90.0,-12.12,-73.0,289.167,0.91
370,petatlan,12.0,MX,1536381225.0,100.0,17.52,-101.27,300.617,1.86
371,sitka,88.0,US,1536380787.0,90.0,37.17,-99.65,293.12,3.76
372,west fargo,1.0,US,1536380100.0,77.0,46.88,-96.9,289.85,2.1
373,camas,1.0,US,1536378960.0,58.0,45.59,-122.41,292.55,2.6
374,beroroha,0.0,MG,1536381226.0,33.0,-21.68,45.17,299.417,3.66
375,pemba,20.0,MZ,1536379200.0,100.0,-12.97,40.52,294.15,2.1
377,leningradskiy,0.0,RU,1536380931.0,75.0,69.38,178.42,282.92,1.76
378,ilulissat,24.0,GL,1536378600.0,86.0,69.22,-51.1,274.15,0.5
379,yinchuan,0.0,CN,1536381227.0,33.0,38.48,106.21,295.517,2.21
380,saldanha,48.0,PT,1536380938.0,86.0,41.42,-6.55,286.97,1.66
381,flin flon,80.0,CA,1536381228.0,70.0,54.77,-101.88,284.467,5.01
382,eureka,1.0,US,1536378900.0,100.0,40.8,-124.16,285.15,2.56
383,talca,0.0,CL,1536379200.0,86.0,-35.43,-71.66,277.15,1.5
384,oudtshoorn,75.0,ZA,1536379200.0,93.0,-33.59,22.2,281.15,3.1
386,clarksburg,1.0,US,1536378900.0,90.0,39.28,-80.34,295.35,1.21
387,port hedland,0.0,AU,1536379200.0,20.0,-20.31,118.58,304.15,6.7
390,glomfjord,0.0,NO,1536378600.0,71.0,66.82,13.94,287.15,7.2
391,ajdabiya,0.0,LY,1536381230.0,37.0,30.75,20.22,299.267,1.31
392,wajir,75.0,KE,1536375600.0,78.0,1.75,40.07,295.15,2.1
393,rodekro,75.0,DK,1536380400.0,93.0,55.07,9.32,284.15,7.7
394,ignacio de la llave,75.0,MX,1536378000.0,88.0,18.73,-95.98,299.15,1.46
395,grenada,1.0,US,1536378780.0,87.0,33.77,-89.81,298.15,2.41
396,amberley,0.0,NZ,1536379200.0,66.0,-43.15,172.73,282.15,5.7
397,namibe,0.0,AO,1536381232.0,98.0,-15.19,12.15,290.117,1.96
398,tilichiki,92.0,RU,1536380787.0,97.0,60.47,166.1,286.72,1.96
399,nioro,92.0,GM,1536381233.0,94.0,13.79,-15.05,296.017,4.16
400,makueni,92.0,KE,1536381233.0,79.0,-1.8,37.62,292.367,1.96
401,ribeira brava,40.0,PT,1536379200.0,68.0,32.65,-17.07,294.15,4.1
402,broome,48.0,GB,1536378960.0,87.0,52.47,1.45,283.15,3.6
403,el alto,44.0,BO,1536379200.0,63.0,-16.5,-68.19,272.15,1.21
405,tevaitoa,92.0,PF,1536381234.0,100.0,-16.78,-151.5,298.117,4.51
406,samarai,92.0,PG,1536380993.0,97.0,-10.62,150.67,299.12,7.41
409,ankazoabo,0.0,MG,1536381236.0,35.0,-22.29,44.51,298.317,5.01
410,karasjok,92.0,NO,1536378600.0,87.0,69.47,25.52,280.15,7.7
411,kimbe,68.0,PG,1536381236.0,100.0,-5.56,150.15,298.317,1.96
412,cimislia,75.0,MD,1536379200.0,87.0,46.52,28.78,287.15,3.1
413,wakkanai,40.0,JP,1536375600.0,63.0,45.41,141.67,292.15,9.3
414,englehart,1.0,CA,1536379200.0,80.0,47.82,-79.87,278.15,2.1
415,sechura,0.0,PE,1536380853.0,86.0,-5.56,-80.82,292.27,5.46
416,buala,56.0,SB,1536380800.0,90.0,-8.15,159.59,301.97,1.86
417,mangan,8.0,IN,1536381238.0,68.0,27.5,88.54,286.167,0.86
418,daru,92.0,SL,1536381238.0,100.0,7.99,-10.85,294.867,1.36
419,poronaysk,0.0,RU,1536381238.0,76.0,49.22,143.1,288.467,4.81
420,weligama,0.0,LK,1536381042.0,72.0,5.97,80.42,302.967,7.96
421,havelock,1.0,US,1536379080.0,100.0,34.88,-76.9,298.15,0.91
422,pitimbu,20.0,BR,1536379200.0,94.0,-7.47,-34.81,294.15,3.1
423,adet,0.0,ET,1536381239.0,100.0,11.26,37.49,290.117,1.96
424,mount darwin,0.0,ZW,1536381240.0,44.0,-16.77,31.58,296.167,2.11
425,keti bandar,44.0,PK,1536381240.0,97.0,24.14,67.45,299.567,4.01
426,verkhnevilyuysk,92.0,RU,1536380872.0,68.0,63.45,120.31,276.57,3.56
427,aklavik,20.0,CA,1536379200.0,69.0,68.22,-135.01,276.15,1.0
428,pisco,40.0,PE,1536379200.0,87.0,-13.71,-76.2,289.15,1.5
429,hudiksvall,92.0,SE,1536381106.0,96.0,61.73,17.1,288.217,5.66
430,coffs harbour,40.0,AU,1536379200.0,82.0,-30.3,153.13,293.15,6.7
431,qaqortoq,76.0,GL,1536378600.0,86.0,60.72,-46.03,278.15,1.01
432,baie-saint-paul,0.0,CA,1536381242.0,78.0,47.44,-70.51,279.367,3.21
433,gryazi,0.0,RU,1536381242.0,36.0,52.5,39.96,293.317,4.01
434,fairbanks,1.0,US,1536379080.0,59.0,64.84,-147.72,284.85,4.6
436,kjollefjord,32.0,NO,1536381243.0,85.0,70.95,27.35,282.117,2.31
437,port arthur,1.0,US,1536380100.0,87.0,29.9,-93.93,301.15,1.16
438,kalmar,0.0,SE,1536378600.0,100.0,56.66,16.36,289.15,1.5
439,innisfail,40.0,CA,1536379200.0,62.0,52.02,-113.95,288.15,2.6
440,oranjemund,48.0,ZA,1536380764.0,100.0,-28.55,16.43,285.87,5.71
441,ahome,36.0,MX,1536381244.0,93.0,25.92,-109.18,299.667,4.66
442,kyzyl-mazhalyk,36.0,RU,1536381245.0,49.0,51.15,90.58,292.267,2.06
443,syumsi,24.0,RU,1536381245.0,80.0,57.11,51.61,290.067,1.66
444,makat,32.0,KZ,1536381245.0,30.0,47.65,53.35,295.567,3.56
445,markova,0.0,RU,1536379200.0,58.0,52.21,104.21,287.15,5.0
447,la ronge,75.0,CA,1536379200.0,66.0,55.1,-105.3,285.15,5.7
448,portland,75.0,US,1536378960.0,63.0,45.52,-122.67,292.55,1.5
449,bahia blanca,0.0,AR,1536381247.0,92.0,-38.72,-62.27,280.467,4.01
451,filadelfia,0.0,PY,1536381247.0,48.0,-22.35,-60.04,292.917,2.26
452,cartagena,92.0,ES,1536379200.0,73.0,37.63,-1.0,298.15,5.7
453,vysokogornyy,0.0,RU,1536381248.0,64.0,50.1,139.13,284.317,4.01
454,oltu,68.0,TR,1536381248.0,87.0,40.55,42.0,285.467,0.91
455,haguenau,64.0,FR,1536380400.0,100.0,48.82,7.79,283.15,1.0
456,muisne,48.0,EC,1536381249.0,97.0,0.61,-80.02,294.117,1.21
457,naze,92.0,NG,1536381249.0,98.0,5.43,7.07,294.767,1.96
458,sinop,40.0,TR,1536378600.0,57.0,42.03,35.15,297.15,8.2
459,semey,88.0,KZ,1536380870.0,74.0,50.41,80.25,286.77,2.76
460,lazaro cardenas,80.0,MX,1536381250.0,98.0,28.39,-105.62,290.817,2.61
461,teknaf,76.0,BD,1536381250.0,82.0,20.86,92.31,302.517,1.66
462,rocha,36.0,UY,1536380789.0,65.0,-34.48,-54.34,282.72,2.11
463,araci,36.0,BR,1536381251.0,89.0,-11.34,-38.96,293.467,3.06
464,storforshei,0.0,NO,1536381251.0,87.0,66.4,14.52,276.317,0.76
465,san patricio,0.0,PY,1536380809.0,82.0,-26.98,-56.83,288.32,1.06
466,hammerfest,0.0,NO,1536378600.0,87.0,70.66,23.68,281.15,3.6
467,sabang,32.0,PH,1536381252.0,84.0,13.72,123.58,303.217,2.96
468,barcelos,75.0,PT,1536379200.0,77.0,41.53,-8.62,293.15,2.1
470,viransehir,0.0,TR,1536381253.0,67.0,37.24,39.76,296.267,1.76
471,whithorn,20.0,JM,1536379200.0,88.0,18.26,-78.04,299.15,0.5
472,luba,68.0,PH,1536381253.0,91.0,17.32,120.7,299.117,3.01
473,lewiston,1.0,US,1536378960.0,96.0,44.1,-70.21,288.15,1.91
474,la sarre,0.0,CA,1536381254.0,100.0,48.8,-79.2,278.317,3.46
475,tarko-sale,0.0,RU,1536381254.0,83.0,64.92,77.78,282.367,2.11
476,srednekolymsk,0.0,RU,1536381255.0,48.0,67.46,153.71,293.167,3.31
477,aksu,40.0,KZ,1536379200.0,82.0,52.04,76.93,286.15,5.0
478,agadez,88.0,NE,1536381255.0,74.0,16.97,7.99,297.667,2.21
479,garissa,44.0,KE,1536381256.0,71.0,-0.46,39.64,298.317,5.11
480,kursumlija,0.0,RS,1536379200.0,82.0,43.14,21.27,289.15,1.16
481,comodoro rivadavia,0.0,AR,1536375600.0,49.0,-45.87,-67.48,282.15,3.6
482,klaipeda,0.0,LT,1536378600.0,82.0,55.72,21.12,289.15,1.0
483,iguatemi,0.0,BR,1536381257.0,77.0,-23.67,-54.56,285.817,1.21
484,lauchhammer,0.0,DE,1536380400.0,82.0,51.5,13.76,286.15,2.1
485,chumikan,92.0,RU,1536381258.0,86.0,54.72,135.31,282.417,6.11
486,kutum,56.0,SD,1536381258.0,100.0,14.2,24.66,292.367,2.06
487,hirara,75.0,JP,1536379200.0,66.0,24.8,125.28,305.15,5.1
488,macamic,5.0,CA,1536379200.0,100.0,48.75,-79.0,275.15,3.46
489,bakel,32.0,SN,1536381259.0,85.0,14.9,-12.46,296.917,4.56
490,ligayan,12.0,PH,1536380930.0,100.0,4.65,119.47,300.77,3.81
491,mutoko,0.0,ZW,1536381259.0,46.0,-17.4,32.23,295.467,2.01
492,mount gambier,76.0,AU,1536380660.0,79.0,-37.83,140.78,286.17,4.31
493,kulhudhuffushi,80.0,MV,1536381260.0,97.0,6.62,73.07,302.067,5.91
494,shwebo,20.0,MM,1536381260.0,88.0,22.57,95.7,303.767,2.51
495,hvide sande,92.0,DK,1536378600.0,93.0,56.01,8.13,284.15,2.6
496,yantongshan,0.0,CN,1536381261.0,72.0,43.28,126.02,288.967,2.71
497,hegang,48.0,CN,1536381261.0,70.0,47.34,130.28,286.067,3.86
498,jahangirabad,36.0,IN,1536381262.0,81.0,28.4,78.11,303.067,8.16
499,emba,20.0,CY,1536379200.0,78.0,34.81,32.42,297.15,4.6
500,vanimo,64.0,PG,1536380908.0,100.0,-2.67,141.3,299.17,2.21
501,kananga,64.0,CD,1536381262.0,96.0,-5.9,22.41,294.267,1.21
502,tutoia,0.0,BR,1536381263.0,88.0,-2.76,-42.27,298.217,4.31
503,maltahohe,0.0,NA,1536381263.0,81.0,-24.83,16.98,272.567,5.71
504,puerto escondido,0.0,MX,1536380796.0,100.0,15.86,-97.07,302.72,2.06
505,newport,40.0,GB,1536378600.0,100.0,51.59,-3.0,287.15,2.1
506,ixtapa,90.0,MX,1536378240.0,100.0,20.71,-105.21,298.15,2.6
507,shakhtinsk,40.0,KZ,1536379200.0,81.0,49.71,72.59,284.15,2.0
508,porbandar,40.0,IN,1536379200.0,78.0,21.64,69.61,300.15,2.1
510,inhambane,0.0,MZ,1536381265.0,75.0,-23.87,35.38,299.467,8.11
511,ranong,20.0,TH,1536379200.0,74.0,9.96,98.62,303.15,3.1
512,gat,40.0,SN,1536375600.0,94.0,14.69,-16.54,298.15,2.1
513,ahuimanu,90.0,US,1536379020.0,79.0,21.44,-157.84,301.45,4.6
514,praia,0.0,BR,1536375600.0,59.0,-20.25,-43.81,290.15,2.1
515,xuanhua,44.0,CN,1536381266.0,40.0,40.61,115.04,291.717,1.51
516,khani,40.0,GE,1536377400.0,93.0,41.96,42.96,292.15,3.6
517,kuala terengganu,75.0,MY,1536379200.0,70.0,5.33,103.14,304.15,1.5
518,manaia,0.0,NZ,1536381267.0,97.0,-39.55,174.12,283.317,7.46
519,oktyabrskiy,32.0,RU,1536379200.0,87.0,55.61,37.97,285.15,1.76
521,lagoa,0.0,PT,1536379200.0,82.0,37.14,-8.45,290.15,2.6
522,nemuro,75.0,JP,1536375600.0,88.0,43.32,145.57,296.15,5.1
523,san javier,100.0,ES,1536379200.0,73.0,37.81,-0.83,298.15,5.7
524,sorland,0.0,NO,1536380877.0,97.0,67.67,12.69,285.87,5.46
525,pareora,0.0,NZ,1536381269.0,92.0,-44.49,171.21,279.367,2.06
526,jambi,32.0,ID,1536381051.0,83.0,-1.6,103.62,303.067,1.06
527,dikson,56.0,RU,1536380723.0,100.0,73.51,80.55,275.67,4.91
528,quang ngai,32.0,VN,1536381270.0,96.0,15.12,108.8,298.467,1.06
529,luanda,75.0,AO,1536379200.0,94.0,-8.83,13.24,293.15,2.1
530,haverfordwest,92.0,GB,1536381252.0,100.0,51.8,-4.97,288.717,8.06
531,severo-yeniseyskiy,0.0,RU,1536381271.0,62.0,60.37,93.04,288.317,2.06
532,poum,20.0,MK,1536379200.0,82.0,41.28,20.71,287.15,1.5
533,savinka,8.0,RU,1536381271.0,33.0,50.08,47.1,295.967,2.11
534,mehamn,32.0,NO,1536381271.0,85.0,71.03,27.85,282.117,2.31
535,tselinnoye,44.0,UA,1536381272.0,100.0,45.9,34.18,293.717,2.26
536,kirkuk,0.0,IQ,1536381272.0,24.0,35.47,44.4,305.717,2.06
537,waingapu,0.0,ID,1536381272.0,44.0,-9.65,120.26,305.017,5.21
538,miraflores,56.0,CO,1536381273.0,100.0,5.2,-73.14,282.117,0.26
539,aksarka,92.0,RU,1536381273.0,100.0,66.56,67.8,279.617,7.01
540,awbari,0.0,LY,1536380894.0,29.0,26.59,12.77,292.67,2.26
541,bend,1.0,US,1536380100.0,30.0,44.06,-121.32,294.25,3.1
542,oussouye,40.0,SN,1536379200.0,94.0,12.49,-16.54,298.15,6.2
543,acajutla,64.0,SV,1536381274.0,95.0,13.59,-89.83,296.067,0.91
544,taree,40.0,AU,1536379200.0,64.0,-31.91,152.46,293.15,7.7
545,chara,20.0,GR,1536378600.0,64.0,39.42,22.43,294.15,3.1
546,khangah dogran,100.0,PK,1536381275.0,76.0,31.83,73.62,302.867,2.21
547,comarapa,0.0,BO,1536381275.0,87.0,-17.91,-64.53,277.017,1.41
548,skjervoy,8.0,NO,1536381276.0,100.0,70.03,20.97,283.017,1.06
549,hastings,92.0,NZ,1536381208.0,100.0,-39.64,176.84,282.717,10.36
550,pasni,68.0,PK,1536381276.0,97.0,25.26,63.48,299.317,2.51
551,arlit,56.0,NE,1536380876.0,40.0,18.74,7.39,300.67,3.06
552,guangyuan,0.0,CN,1536381277.0,45.0,32.43,105.86,298.667,1.41
554,smithers,75.0,CA,1536379200.0,87.0,54.78,-127.17,286.15,3.1
555,hamilton,75.0,CA,1536379200.0,63.0,43.26,-79.87,293.15,3.6
556,peniche,90.0,PT,1536379200.0,100.0,39.36,-9.38,290.15,3.1
557,itarema,0.0,BR,1536380770.0,84.0,-2.92,-39.92,298.22,7.06
558,zhanaozen,68.0,KZ,1536381278.0,27.0,43.35,52.85,296.617,10.36
560,ca mau,92.0,VN,1536381279.0,91.0,9.18,105.15,301.017,5.46
561,carutapera,44.0,BR,1536381279.0,89.0,-1.2,-46.02,298.717,2.96
562,guerrero negro,0.0,MX,1536380818.0,84.0,27.97,-114.04,295.12,5.01
563,zheshart,76.0,RU,1536381280.0,87.0,62.09,49.59,288.317,2.76
564,hwange,68.0,ZW,1536381280.0,39.0,-18.35,26.5,297.767,5.81
565,faanui,8.0,PF,1536380797.0,100.0,-16.48,-151.75,298.77,4.46
566,dibrugarh,75.0,IN,1536379200.0,94.0,27.48,94.9,300.15,0.41
567,chinchani,76.0,IN,1536381281.0,96.0,16.42,74.53,296.267,4.36
568,half moon bay,20.0,US,1536378960.0,77.0,37.46,-122.43,295.95,6.2
569,bang saphan,20.0,TH,1536379200.0,62.0,11.21,99.51,303.15,5.1
570,huancayo,8.0,PE,1536381282.0,87.0,-12.08,-75.21,271.567,1.16
571,katobu,8.0,ID,1536381282.0,62.0,-4.94,122.53,304.967,3.76
572,opuwo,0.0,NA,1536380890.0,75.0,-18.06,13.84,279.57,1.01
573,yarim,0.0,YE,1536381283.0,28.0,14.3,44.38,298.067,0.91
574,madison,75.0,US,1536378960.0,66.0,43.07,-89.38,287.65,2.1
575,seybaplaya,40.0,MX,1536378180.0,94.0,19.65,-90.67,295.15,2.81
576,soe,92.0,EE,1536378600.0,93.0,57.91,26.05,285.15,1.5
577,ust-kulom,68.0,RU,1536381284.0,78.0,61.69,53.69,289.317,2.76
578,neiafu,40.0,TO,1536379200.0,94.0,-18.65,-173.98,298.15,2.6
579,husavik,8.0,CA,1536381284.0,70.0,50.56,-96.99,287.467,4.81
580,sovetskiy,36.0,RU,1536381285.0,56.0,56.76,48.47,293.117,3.76
581,saint-augustin,12.0,FR,1536379200.0,100.0,44.83,-0.61,285.15,0.5
582,bandarbeyla,0.0,SO,1536380799.0,78.0,9.49,50.81,295.77,9.81
583,patacamaya,20.0,BO,1536381286.0,87.0,-17.23,-67.92,274.217,1.76
584,dalvik,32.0,SE,1536378600.0,93.0,57.79,14.13,286.15,4.1
585,dudinka,32.0,RU,1536381226.0,86.0,69.41,86.18,279.367,2.11
586,nelson bay,90.0,AU,1536379200.0,72.0,-32.72,152.14,290.15,8.2
587,alpena,1.0,US,1536380100.0,77.0,45.06,-83.43,290.55,2.6
588,kilindoni,80.0,TZ,1536381287.0,100.0,-7.91,39.67,297.467,2.56
590,vila franca do campo,75.0,PT,1536379200.0,100.0,37.72,-25.43,293.15,2.1
591,kuito,0.0,AO,1536381288.0,87.0,-12.38,16.94,288.567,1.41
592,manzanillo,24.0,CU,1536381288.0,100.0,20.34,-77.12,300.617,2.26
593,bonavista,0.0,CA,1536380853.0,95.0,48.65,-53.11,286.17,4.51
594,kavieng,32.0,PG,1536380844.0,100.0,-2.57,150.8,301.12,3.31
595,zhigansk,88.0,RU,1536380875.0,94.0,66.77,123.37,276.12,2.66
596,vrangel,0.0,RU,1536381289.0,96.0,42.73,133.08,291.567,6.71
597,xining,0.0,CN,1536381038.0,65.0,36.62,101.77,289.317,1.51
598,borda da mata,0.0,BR,1536381290.0,77.0,-22.27,-46.17,282.017,1.81
599,ler,0.0,NO,1536378600.0,81.0,63.2,10.3,285.15,6.2
600,umm kaddadah,12.0,SD,1536381290.0,100.0,13.6,26.69,295.267,3.11
601,imeni poliny osipenko,12.0,RU,1536381291.0,71.0,52.42,136.49,288.467,3.21
602,sambava,92.0,MG,1536380841.0,100.0,-14.27,50.17,295.57,6.81
603,pathein,64.0,MM,1536381291.0,83.0,16.78,94.73,303.367,3.01
604,moundsville,75.0,US,1536378780.0,78.0,39.92,-80.74,295.35,4.1
605,louis trichardt,20.0,ZA,1536381292.0,55.0,-23.04,29.91,294.867,1.76
606,charlestown,90.0,US,1536380100.0,93.0,41.38,-71.64,293.75,1.5
607,tortoli,5.0,IT,1536378900.0,43.0,39.93,9.66,295.15,4.1
608,port keats,0.0,AU,1536381293.0,54.0,-14.25,129.55,305.267,2.91
609,gravelbourg,24.0,CA,1536381293.0,52.0,49.88,-106.56,293.117,5.16
610,narasannapeta,0.0,IN,1536381293.0,79.0,18.42,84.04,304.617,1.86
